
[
	{
		"id": 1,
		"name": "Instituto uno",
		"disciplines": [1,3],
		"lat": 19.47880202,
		"lng": -99.28394107,
		"address": "Calle 1. no 2",
		"phone":"1321 - 464654",
		"webPage": "www.webPage.com",
		"images": ["/images/fff.png","/images/fff.png","/images/fff.png","/images/fff.png","/images/fff.png"]
	},
	{
		"id": 2,
		"name": "Instituto dos",
		"disciplines": [1,2],
		"lat": 19.44189519,
		"lng": -99.31566313,
		"address": "Calle 1. no 2",
		"phone":"1321 - 464654",
		"webPage": "www.webPage.com",
		"images": ["/images/fff.png","/images/fff.png","/images/fff.png","/images/fff.png","/images/fff.png"]
	},
	{
		"id": 3,
		"name": "Instituto tres",
		"disciplines": [3,5],
		"lat": 19.53898522,
		"lng": -99.16502546,
		"address": "Calle 1. no 2",
		"phone":"1321 - 464654",
		"webPage": "www.webPage.com",
		"images": ["/images/fff.png","/images/fff.png","/images/fff.png","/images/fff.png","/images/fff.png"]
	},
	{
		"id": 4,
		"name": "Instituto cuatro",
		"disciplines": [2,4],
		"lat": 19.48114855,
		"lng": -99.20100183,
		"address": "Calle 1. no 2",
		"phone":"1321 - 464654",
		"webPage": "www.webPage.com",
		"images": ["/images/fff.png","/images/fff.png","/images/fff.png","/images/fff.png","/images/fff.png"]
	},
	{
		"id": 5,
		"name": "Instituto cinco",
		"disciplines": [1,4],
		"lat": 19.3464354,
		"lng": -99.03381036,
		"address": "Calle 1. no 2",
		"phone":"1321 - 464654",
		"webPage": "www.webPage.com",
		"images": ["/images/fff.png","/images/fff.png","/images/fff.png","/images/fff.png","/images/fff.png"]
	},
		{
		"id": 6,
		"name": "Instituto seis",
		"disciplines": [1,3],
		"lat": 19.47880202,
		"lng": -99.28394107,
		"address": "Calle 1. no 2",
		"phone":"1321 - 464654",
		"webPage": "www.webPage.com",
		"images": ["/images/fff.png","/images/fff.png","/images/fff.png","/images/fff.png","/images/fff.png"]
	},
	{
		"id": 7,
		"name": "Instituto siete",
		"disciplines": [1,2],
		"lat": 19.44189519,
		"lng": -99.31566313,
		"address": "Calle 1. no 2",
		"phone":"1321 - 464654",
		"webPage": "www.webPage.com",
		"images": ["/images/fff.png","/images/fff.png","/images/fff.png","/images/fff.png","/images/fff.png"]
	},
	{
		"id": 8,
		"name": "Instituto ocho",
		"disciplines": [3,5],
		"lat": 19.53898522,
		"lng": -99.16502546,
		"address": "Calle 1. no 2",
		"phone":"1321 - 464654",
		"webPage": "www.webPage.com",
		"images": ["/images/fff.png","/images/fff.png","/images/fff.png","/images/fff.png","/images/fff.png"]
	},
	{
		"id": 9,
		"name": "Instituto nueve",
		"disciplines": [2,4],
		"lat": 19.48114855,
		"lng": -99.20100183,
		"address": "Calle 1. no 2",
		"phone":"1321 - 464654",
		"webPage": "www.webPage.com",
		"images": ["/images/fff.png","/images/fff.png","/images/fff.png","/images/fff.png","/images/fff.png"]
	},
	{
		"id": 10,
		"name": "Instituto diez",
		"disciplines": [1,4],
		"lat": 19.3464354,
		"lng": -99.03381036,
		"address": "Calle 1. no 2",
		"phone":"1321 - 464654",
		"webPage": "www.webPage.com",
		"images": ["/images/fff.png","/images/fff.png","/images/fff.png","/images/fff.png","/images/fff.png"]
	},
		{
		"id": 11,
		"name": "Instituto once",
		"disciplines": [1,3],
		"lat": 19.47880202,
		"lng": -99.28394107,
		"address": "Calle 1. no 2",
		"phone":"1321 - 464654",
		"webPage": "www.webPage.com",
		"images": ["/images/fff.png","/images/fff.png","/images/fff.png","/images/fff.png","/images/fff.png"]
	},
	{
		"id": 12,
		"name": "Instituto doce",
		"disciplines": [1,2],
		"lat": 19.44189519,
		"lng": -99.31566313,
		"address": "Calle 1. no 2",
		"phone":"1321 - 464654",
		"webPage": "www.webPage.com",
		"images": ["/images/fff.png","/images/fff.png","/images/fff.png","/images/fff.png","/images/fff.png"]
	},
	{
		"id": 13,
		"name": "Instituto trece",
		"disciplines": [3,5],
		"lat": 19.53898522,
		"lng": -99.16502546,
		"address": "Calle 1. no 2",
		"phone":"1321 - 464654",
		"webPage": "www.webPage.com",
		"images": ["/images/fff.png","/images/fff.png","/images/fff.png","/images/fff.png","/images/fff.png"]
	},
	{
		"id": 14,
		"name": "Instituto catorce",
		"disciplines": [2,4],
		"lat": 19.48114855,
		"lng": -99.20100183,
		"address": "Calle 1. no 2",
		"phone":"1321 - 464654",
		"webPage": "www.webPage.com",
		"images": ["/images/fff.png","/images/fff.png","/images/fff.png","/images/fff.png","/images/fff.png"]
	},
	{
		"id": 15,
		"name": "Instituto quince",
		"disciplines": [1,4],
		"lat": 19.3464354,
		"lng": -99.03381036,
		"address": "Calle 1. no 2",
		"phone":"1321 - 464654",
		"webPage": "www.webPage.com",
		"images": ["/images/fff.png","/images/fff.png","/images/fff.png","/images/fff.png","/images/fff.png"]
	}
]
